City,Lat,Lng,Max Temp,Humidity,Cloudiness,Wind Speed,Country,Date
Alibag,18.6411,72.8792,82.4,78,20,8.9,IN,1619129798
Barrow,71.2906,-156.7887,19.4,79,1,8.05,US,1619129324
Sørland,67.667,12.6934,30.2,93,75,3.44,NO,1619129799
Norman Wells,65.282,-126.8329,26.6,50,75,12.66,CA,1619129376
Pitimbu,-7.4706,-34.8086,78.8,100,0,6.91,BR,1619129799
Mataura,-46.1927,168.8643,50.0,98,97,5.99,NZ,1619129461
Lebu,-37.6167,-73.65,53.62,71,86,3.13,CL,1619129415
Port Elizabeth,-33.918,25.5701,64.4,88,0,13.8,ZA,1619129490
Shimanovsk,52.0,127.7,32.68,37,100,14.14,RU,1619129800
Thompson,55.7435,-97.8558,21.2,79,75,18.41,CA,1619129327
Vaini,-21.2,-175.2,84.2,84,75,6.91,TO,1619129285
Sakakah,29.9697,40.2064,82.4,15,40,6.91,SA,1619129531
Busselton,-33.65,115.3333,57.0,83,94,3.0,AU,1619129046
Saint George,37.1041,-113.5841,75.99,16,1,16.11,US,1619129323
Faanui,-16.4833,-151.75,81.03,74,12,15.32,PF,1619129471
Daoukro,7.0591,-3.9631,78.06,82,23,3.51,CI,1619129767
Souillac,-20.5167,57.5167,77.0,94,75,5.75,MU,1619129311
Dikson,73.5069,80.5464,28.17,91,100,23.31,RU,1619129319
Jamestown,42.097,-79.2353,34.0,86,90,13.8,US,1619129465
Marrakesh,31.6315,-8.0083,69.8,52,85,11.5,MA,1619129732
Hobart,-42.8794,147.3294,55.4,44,75,11.5,AU,1619129280
Hong Kong,22.2855,114.1577,77.0,83,0,5.06,HK,1619129222
Businga,3.3333,20.8833,74.17,83,96,1.21,CD,1619129804
Goiás,-15.5807,-49.6362,67.73,62,8,2.04,BR,1619129804
Yellowknife,62.456,-114.3525,17.6,49,75,21.85,CA,1619129023
Hermanus,-34.4187,19.2345,60.01,85,0,3.2,ZA,1619129462
Ulaangom,49.9811,92.0667,33.31,50,100,2.37,MN,1619129805
Guerrero Negro,27.9769,-114.0611,65.25,54,2,19.13,MX,1619129302
Russell,32.3502,-85.1999,68.0,21,1,6.91,US,1619129806
Punta Arenas,-53.15,-70.9167,46.4,93,75,4.61,CL,1619129304
San Cristobal,7.7669,-72.225,86.0,62,20,10.36,VE,1619129432
Pokhara,28.2333,83.9833,63.19,31,1,7.99,NP,1619129306
Cidreira,-30.1811,-50.2056,69.6,73,1,16.64,BR,1619129436
Awjilah,29.1081,21.2869,75.07,18,100,12.95,LY,1619129807
Krasnosel'kup,65.7,82.4667,23.67,91,84,13.67,RU,1619129808
Klaksvík,62.2266,-6.589,42.8,81,75,6.02,FO,1619129501
Ponta do Sol,32.6667,-17.1,64.99,90,82,10.0,PT,1619129327
Champerico,14.3,-91.9167,89.6,70,75,11.5,GT,1619129449
Guiratinga,-16.3494,-53.7583,74.23,50,64,4.07,BR,1619129809
Rikitea,-23.1203,-134.9692,78.08,75,81,16.33,PF,1619129276
Castro,-24.7911,-50.0119,58.75,83,100,4.05,BR,1619129287
Grindavik,63.8424,-22.4338,44.6,87,90,25.32,IS,1619129398
Tres Arroyos,-38.3739,-60.2798,62.2,93,74,6.02,AR,1619129810
Kiryat Gat,31.61,34.7642,62.01,77,40,3.44,IL,1619129810
Urmia,37.5527,45.0761,53.6,66,0,6.91,IR,1619129811
Albany,42.6001,-73.9662,42.01,34,86,1.99,US,1619129251
Yar-Sale,66.8333,70.8333,34.27,87,79,16.67,RU,1619129519
Kaka,37.3482,59.6143,61.97,21,49,7.87,TM,1619129812
Bonavista,48.6499,-53.1147,48.2,76,100,8.05,CA,1619129812
Sibolga,1.7427,98.7792,76.05,87,100,2.86,ID,1619129513
Banjar,-8.19,114.9675,77.0,73,20,3.44,ID,1619129312
Butaritari,3.0707,172.7902,82.62,74,49,11.25,KI,1619129291
Bambous Virieux,-20.3428,57.7575,77.0,94,75,5.75,MU,1619129293
Arawa,-6.2132,155.5367,77.16,90,100,4.05,PG,1619129814
Buala,-8.145,159.5921,82.74,76,88,6.8,SB,1619129391
Avarua,-21.2078,-159.775,78.8,83,75,27.63,CK,1619129332
Clyde River,70.4692,-68.5914,15.8,79,75,5.75,CA,1619129290
Bilibino,68.0546,166.4372,20.98,84,98,3.36,RU,1619129301
Esfarāyen,37.0765,57.5101,59.0,41,0,2.3,IR,1619129815
Honningsvåg,70.9821,25.9704,35.6,64,40,8.05,NO,1619129346
East London,-33.0153,27.9116,68.0,79,97,12.3,ZA,1619129334
Saldanha,-33.0117,17.9442,60.8,82,0,3.44,ZA,1619129487
Marsá Maţrūḩ,31.3525,27.2453,60.8,72,75,5.75,EG,1619129816
Vila Franca do Campo,37.7167,-25.4333,59.0,77,40,32.21,PT,1619129425
Tarboro,35.8968,-77.5358,57.2,28,90,12.66,US,1619129817
Tuktoyaktuk,69.4541,-133.0374,10.4,72,40,9.22,CA,1619129313
Los Llanos de Aridane,28.6585,-17.9182,68.0,73,20,5.75,ES,1619129162
Deputatsky,69.3,139.9,2.91,95,94,1.45,RU,1619129480
Codrington,-38.2667,141.9667,55.0,75,100,10.49,AU,1619129373
Ol'ga,43.7444,135.2892,46.56,48,100,2.64,RU,1619129818
Mar del Plata,-38.0023,-57.5575,69.8,88,40,8.05,AR,1619129339
Bathsheba,13.2167,-59.5167,80.6,61,40,19.57,BB,1619129299
Dwārka,22.2394,68.9678,79.99,80,48,10.49,IN,1619129819
North Myrtle Beach,33.816,-78.68,63.0,23,1,10.36,US,1619129076
Baykit,61.67,96.37,24.3,93,100,4.34,RU,1619129820
Oktyabr'skoye,43.0645,44.7417,50.0,100,100,6.71,RU,1619129821
Qasigiannguit,68.8193,-51.1922,24.8,74,100,4.61,GL,1619129821
Sijunjung,-0.6876,100.9537,70.95,95,99,1.63,ID,1619129665
Sibu,2.3,111.8167,73.4,100,40,2.3,MY,1619129822
New Norfolk,-42.7826,147.0587,51.01,64,70,3.0,AU,1619129335
Thinadhoo,0.5333,72.9333,82.76,64,77,9.17,MV,1619129445
Bethel,41.3712,-73.414,44.01,45,94,5.99,US,1619129270
Atuona,-9.8,-139.0333,80.74,75,53,20.51,PF,1619129497
Kismayo,-0.3582,42.5454,81.28,80,100,11.52,SO,1619129823
Hilo,19.7297,-155.09,82.4,54,90,11.5,US,1619129338
Saint Paul Harbor,57.79,-152.4072,42.8,87,90,13.8,US,1619129462
Fukuechō,32.6881,128.8419,65.62,71,100,2.98,JP,1619129824
Chui,-33.6971,-53.4616,65.89,79,10,12.15,UY,1619129493
Coolum Beach,-26.5333,153.1,66.0,61,56,6.29,AU,1619129825
Port Alfred,-33.5906,26.891,67.42,80,65,18.75,ZA,1619129338
Mwinilunga,-11.7358,24.4293,64.69,86,100,3.51,ZM,1619129826
Ushuaia,-54.8,-68.3,42.8,87,75,11.5,AR,1619129278
Kapaa,22.0752,-159.319,80.01,73,20,9.22,US,1619129273
Oranjemund,-28.55,16.4333,59.77,87,0,2.77,NA,1619129827
Arraial do Cabo,-22.9661,-42.0278,71.6,88,20,14.97,BR,1619129463
Saint-Philippe,-21.3585,55.7679,77.0,78,90,10.36,RE,1619129503
Tuatapere,-46.1333,167.6833,50.0,98,99,5.99,NZ,1619129483
Nikolskoye,59.7035,30.7861,45.0,93,90,2.24,RU,1619129323
Biloela,-24.4167,150.5,66.15,33,100,13.71,AU,1619129828
Port Lincoln,-34.7333,135.8667,60.06,71,100,7.36,AU,1619129280
Lüderitz,-26.6481,15.1594,64.87,72,1,6.4,NA,1619129285
Fairbanks,64.8378,-147.7164,54.0,25,1,9.22,US,1619129366
Tiksi,71.6872,128.8694,10.92,90,100,4.76,RU,1619129330
San Patricio,28.017,-97.5169,73.99,78,90,17.27,US,1619129830
Nanortalik,60.1432,-45.2371,37.2,75,62,3.11,GL,1619129374
Jiazi,22.8779,116.067,73.2,83,11,3.62,CN,1619129830
Berdigestyakh,62.0989,126.6992,17.2,90,98,7.25,RU,1619129831
Cockburn Town,21.4612,-71.1419,80.6,74,40,11.5,TC,1619129455
Kruisfontein,-34.0033,24.7314,66.0,83,5,7.0,ZA,1619129831
Falam,22.9167,93.6833,61.65,64,1,3.69,MM,1619129832
Göksun,38.021,36.4973,51.8,87,0,5.75,TR,1619129832
Revelstoke,50.9832,-118.2023,53.6,43,90,9.22,CA,1619129833
Bredasdorp,-34.5322,20.0403,55.4,94,2,3.44,ZA,1619129289
Cabo San Lucas,22.8909,-109.9124,82.0,26,20,4.61,MX,1619129178
Tasiilaq,65.6145,-37.6368,28.4,59,90,14.97,GL,1619129318
Kaitangata,-46.2817,169.8464,55.99,89,100,3.4,NZ,1619129400
Upernavik,72.7868,-56.1549,25.05,87,99,6.62,GL,1619129286
Airai,-8.9266,125.4092,57.6,85,34,2.13,TL,1619129523
Bahir Dar,11.5936,37.3908,61.99,83,96,5.55,ET,1619129700
Bluff,-46.6,168.3333,50.0,98,100,5.99,NZ,1619129273
Samarai,-10.6167,150.6667,82.11,78,82,3.27,PG,1619129835
Labuhan,-6.8844,112.2051,74.8,81,45,6.89,ID,1619129414
Carahue,-38.7,-73.1667,57.2,67,0,5.75,CL,1619129836
Severo-Kuril'sk,50.6789,156.125,35.1,94,68,4.03,RU,1619129354
Ribeira Grande,38.5167,-28.7,57.11,78,60,37.54,PT,1619129342
Klang,3.0333,101.45,75.2,94,20,6.31,MY,1619129837
Bowen,-20.0167,148.2333,73.4,73,90,6.91,AU,1619129374
Peniche,39.3558,-9.3811,59.0,85,100,7.76,PT,1619129361
Pangai,-19.8,-174.35,86.0,70,40,5.75,TO,1619129838
Geraldton,-28.7667,114.6,62.6,82,100,9.22,AU,1619129410
Puerto Ayora,-0.7393,-90.3518,82.4,74,20,19.57,EC,1619129278
Altay,47.8667,88.1167,26.28,47,100,2.3,CN,1619129839
Mackay,-21.15,149.2,71.6,83,90,6.91,AU,1619129839
Hithadhoo,-0.6,73.0833,82.65,73,44,7.58,MV,1619129399
High Rock,26.6208,-78.2833,78.8,69,40,6.91,BS,1619129840
Cherskiy,68.75,161.3,18.86,91,100,11.56,RU,1619129375
Beringovskiy,63.05,179.3167,23.85,76,48,8.12,RU,1619129840
George Town,5.4112,100.3354,77.0,94,40,2.3,MY,1619129294
Verkhnevilyuysk,63.4453,120.3167,26.78,94,100,11.25,RU,1619129841
Hasaki,35.7333,140.8333,50.0,66,20,13.8,JP,1619129297
Saint Anthony,45.0205,-93.218,64.4,20,1,11.5,US,1619129316
Aswān,24.0934,32.907,86.99,16,47,10.2,EG,1619129340
Abu Dhabi,24.4667,54.3667,80.6,54,0,2.3,AE,1619129711
Ilulissat,69.2167,-51.1,24.8,74,100,4.61,GL,1619129303
Kiama,-34.6833,150.8667,59.0,61,0,8.01,AU,1619129843
Lata,40.1629,-8.3327,57.99,94,0,2.3,PT,1619129843
Ialibu,-6.2821,143.9935,59.86,94,99,0.56,PG,1619129844
Ancud,-41.8697,-73.8203,52.0,100,75,8.05,CL,1619129523
Darhan,49.4867,105.9228,26.53,82,100,11.99,MN,1619129844
Avera,33.194,-82.5271,64.4,19,1,4.61,US,1619129422
Lima,-12.0432,-77.0282,69.01,88,90,12.66,PE,1619129691
Ocós,14.5094,-92.1933,89.6,62,20,13.8,GT,1619129845
Almaznyy,48.0448,40.045,51.8,87,20,4.47,RU,1619129845
Amapá,1.0,-52.0,73.09,98,100,3.04,BR,1619129429
La Ronge,55.1001,-105.2842,26.6,50,98,16.11,CA,1619129485
Talnakh,69.4865,88.3972,30.79,95,100,13.67,RU,1619129502
Longyearbyen,78.2186,15.6401,17.6,62,75,1.48,SJ,1619129074
Bengkulu,-3.8004,102.2655,73.54,88,82,4.27,ID,1619129309
Evensk,61.95,159.2333,26.62,91,94,3.76,RU,1619129847
Amga,60.8953,131.9608,18.19,83,55,4.0,RU,1619129847
Pevek,69.7008,170.3133,21.04,71,32,11.18,RU,1619129445
Cody,44.5263,-109.0565,61.0,21,20,11.5,US,1619129848
Daru,-9.0763,143.2092,80.51,83,38,3.76,PG,1619129849
Leshukonskoye,64.8989,45.7622,36.41,94,100,8.19,RU,1619129849
Segezha,63.7415,34.3222,36.39,90,98,4.76,RU,1619129849
Half Moon Bay,37.4636,-122.4286,64.0,93,75,4.61,US,1619129267
Saucillo,28.0167,-105.2833,87.42,4,97,8.75,MX,1619129850
Teknāf,20.8624,92.3058,76.01,89,10,2.59,BD,1619129851
Kununurra,-15.7667,128.7333,69.8,64,100,3.44,AU,1619129255
Narsaq,60.9167,-46.05,50.0,29,20,11.5,GL,1619129851
Vostok,46.4856,135.8833,50.65,45,100,3.58,RU,1619129852
Ostrovnoy,68.0531,39.5131,33.58,94,100,9.42,RU,1619129852
Beroroha,-21.6667,45.1667,71.64,72,6,4.18,MG,1619129853
Santa Pola,38.1917,-0.5658,59.0,88,20,4.61,ES,1619129853
Viedma,-40.8135,-62.9967,61.92,55,42,5.01,AR,1619129854
Hambantota,6.1241,81.1185,78.8,100,40,3.44,LK,1619129854
Ayan,56.45,138.1667,31.55,85,100,5.59,RU,1619129854
Wiarton,44.7407,-81.1332,41.0,52,20,13.8,CA,1619129855
Våler,60.6785,11.8331,37.4,38,0,8.05,NO,1619129855
Vanimo,-2.6741,141.3028,79.72,79,100,2.77,PG,1619129468
Aklavik,68.2191,-135.0107,26.6,54,20,5.75,CA,1619129500
Caracolí,6.4119,-74.7606,80.08,77,50,2.04,CO,1619129856
Haines Junction,60.7522,-137.5108,48.2,25,0,5.75,CA,1619129857
Lumeje,-11.55,20.7833,68.04,69,73,2.86,AO,1619129857
Torbay,47.6666,-52.7314,44.01,87,90,21.85,CA,1619129344
Port Shepstone,-30.7414,30.455,66.18,81,95,9.04,ZA,1619129821
Sulina,45.1559,29.6536,53.01,77,91,13.44,RO,1619129858
Poum,-20.2333,164.0167,77.99,79,66,12.93,NC,1619129859
Santa Cruz de La Palma,28.6835,-17.7642,68.0,68,0,5.75,ES,1619129859
Mandera,3.9366,41.867,83.32,61,100,7.9,KE,1619129859
Sorong,-0.8833,131.25,78.39,87,82,4.36,ID,1619129860
Krasnyy Yar,46.5331,48.3456,53.01,66,75,6.71,RU,1619129860
Beloha,-25.1667,45.05,70.56,80,46,16.44,MG,1619129344
Kyren,51.6828,102.1408,19.99,88,100,1.77,RU,1619129861
Horta,38.5333,-28.6333,55.99,79,66,37.27,PT,1619129861
Eilat,29.5581,34.9482,73.4,31,0,13.8,IL,1619129862
Acoyapa,11.9703,-85.1711,91.4,49,40,9.22,NI,1619129862
Luena,-11.7833,19.9167,62.19,81,66,3.06,AO,1619129225
Saint-Augustin,51.226,-58.6502,39.06,91,100,30.4,CA,1619129467
Esperance,-33.8667,121.9,53.6,94,99,8.05,AU,1619129470
São João da Barra,-21.6403,-41.0511,73.4,78,40,13.8,BR,1619129863
Sitka,57.0531,-135.33,51.8,50,20,8.05,US,1619129457
Qaanaaq,77.484,-69.3632,16.36,80,87,10.38,GL,1619129464
Laramie,41.3114,-105.5911,48.0,31,1,11.5,US,1619129589
Kondinskoye,59.6481,67.41,40.39,69,100,13.8,RU,1619129865
Melbourne,28.0836,-80.6081,75.0,56,1,11.5,US,1619129607
Bhawānipatna,19.9,83.1667,81.23,51,76,3.53,IN,1619129865
Rio Grande,-32.035,-52.0986,71.6,73,0,23.02,BR,1619129866
Fortuna,40.5982,-124.1573,57.99,82,75,16.11,US,1619129317
Husavik,66.0449,-17.3389,39.2,87,0,3.44,IS,1619129511
Grand Gaube,-20.0064,57.6608,75.99,87,100,1.99,MU,1619129867
Karratha,-20.7377,116.8463,74.41,28,0,12.59,AU,1619129419
Rocha,-34.4833,-54.3333,62.56,84,19,8.28,UY,1619129867
Leningradskiy,69.3833,178.4167,34.25,74,90,2.04,RU,1619129868
Coyhaique,-45.5752,-72.0662,48.2,81,75,5.75,CL,1619129868
Hay River,60.8156,-115.7999,23.0,74,100,11.5,CA,1619129681
Caravelas,-17.7125,-39.2481,74.88,82,93,6.15,BR,1619129375
Nouadhibou,20.931,-17.0347,64.4,88,0,16.11,MR,1619129869
Alofi,-19.0595,-169.9187,84.2,74,75,12.66,NU,1619129471
Synya,65.3718,58.0387,38.5,96,100,11.45,RU,1619129870
San Policarpo,12.1791,125.5072,76.8,88,95,5.12,PH,1619129870
Saskylakh,71.9167,114.0833,4.62,97,100,5.3,RU,1619129446
Mopipi,-21.1833,24.8833,63.37,33,52,7.67,BW,1619129871
Leeton,-34.5667,146.4,55.4,71,90,2.3,AU,1619129871
Lamar,33.6668,-95.5836,60.8,39,90,16.11,US,1619129872
Aksarka,66.5606,67.7975,35.37,88,100,13.53,RU,1619129872
Hūn,29.1268,15.9477,76.15,17,67,20.0,LY,1619129872
Kasongo-Lunda,-6.4667,16.8167,67.21,97,100,1.63,CD,1619129873
Zhangye,38.9342,100.4517,58.01,45,3,6.02,CN,1619129873
Auki,-8.7676,160.7034,83.23,71,81,2.77,SB,1619129439
Carnarvon,-24.8667,113.6333,66.2,63,40,6.91,AU,1619129364
Les Cayes,18.2,-73.75,80.64,70,15,9.51,HT,1619129875
Marabba,12.35,32.1833,91.24,27,84,10.11,SD,1619129876
Hualmay,-11.0964,-77.6139,70.05,80,19,8.77,PE,1619129876
Pundaguitan,6.3711,126.1689,82.33,74,55,3.89,PH,1619129877
Wanning,18.8003,110.3967,75.78,89,36,5.46,CN,1619129877
Boa Vista,2.8197,-60.6733,89.6,48,40,9.22,BR,1619129230
Touros,-5.1989,-35.4608,80.6,78,40,6.91,BR,1619129878
Wanlaweyn,2.6185,44.8938,80.29,78,95,9.93,SO,1619129821
Hasilpur,29.7122,72.5553,77.02,34,14,17.05,PK,1619129878
Sept-Îles,50.2001,-66.3821,41.0,100,90,9.22,CA,1619129879
Brae,60.3964,-1.353,42.8,70,90,9.22,GB,1619129309
Sinjai,-5.1241,120.253,72.91,89,31,4.09,ID,1619129595
Petropavlovsk-Kamchatskiy,53.0452,158.6483,39.2,75,20,6.71,RU,1619129627
Khatanga,71.9667,102.5,26.65,97,99,6.55,RU,1619129371
Maniitsoq,65.4167,-52.9,34.18,68,8,4.12,GL,1619129880
Quatre Cocos,-20.2078,57.7625,77.0,94,75,6.91,MU,1619129880
Porangatu,-13.4408,-49.1486,73.71,63,12,2.55,BR,1619129881
Cayenne,4.9333,-52.3333,78.01,94,75,9.22,GF,1619129357
Kota Tinggi,1.7381,103.8999,77.0,94,20,1.14,MY,1619129882
Chokurdakh,70.6333,147.9167,-1.19,97,98,6.13,RU,1619129314
Changli,39.7042,119.1506,51.1,88,100,21.16,CN,1619129882
San Miguel de Cozumel,20.5083,-86.9458,86.0,58,40,10.36,MX,1619129883
Meadow Lake,34.8014,-106.5436,73.0,10,75,8.05,US,1619129883
Iqaluit,63.7506,-68.5145,23.0,86,90,3.44,CA,1619129479
Hobyo,5.3505,48.5268,83.48,72,76,12.08,SO,1619129405
Beacon,41.5048,-73.9696,45.0,45,75,23.02,US,1619129884
Danané,7.2596,-8.155,70.95,97,98,2.75,CI,1619129885
Kavieng,-2.5744,150.7967,81.72,75,90,7.58,PG,1619129505
Springdale,36.1867,-94.1288,62.6,29,75,6.87,US,1619129885
Shaoyang,27.2315,111.4525,65.01,91,100,5.46,CN,1619129886
Ardeşen,41.1911,40.9875,51.8,93,75,2.75,TR,1619129886
Yerbogachën,61.2767,108.0108,25.95,91,100,12.37,RU,1619129887
Karasburg,-28.0167,18.75,71.49,26,2,1.97,NA,1619129887
Dolores,-36.3132,-57.6792,64.44,88,100,8.12,AR,1619129887
Bar Harbor,44.3876,-68.2039,36.0,51,90,9.22,US,1619129888
Sur,22.5667,59.5289,86.18,29,7,16.62,OM,1619129888
Zhezkazgan,47.8043,67.7144,38.53,40,71,12.57,KZ,1619129889
Turukhansk,65.8167,87.9833,28.02,94,100,11.7,RU,1619129889
Dunedin,-45.8742,170.5036,57.99,83,99,1.01,NZ,1619129291
Usinsk,65.9939,57.5281,37.15,97,100,19.53,RU,1619129890
San Quintín,30.4833,-115.95,62.51,61,37,16.78,MX,1619129446
Port Augusta,-32.5,137.7667,53.01,87,16,6.91,AU,1619129891
Cap Malheureux,-19.9842,57.6142,75.99,87,100,1.01,MU,1619129492
‘Ewa Beach,21.3156,-158.0072,84.2,51,75,13.8,US,1619129891
Jashpurnagar,22.9,84.15,70.11,37,22,5.79,IN,1619129892
Port Hedland,-20.3167,118.5667,62.6,39,0,8.05,AU,1619129430
Havelock,34.8791,-76.9013,60.01,26,1,13.8,US,1619129783
Flinders,-34.5833,150.8552,59.0,60,0,3.0,AU,1619129408
Ormara,25.2088,64.6357,81.43,74,0,14.74,PK,1619129893
Vestmanna,62.1564,-7.1664,42.8,81,75,4.81,FO,1619129448
Prado,-17.3411,-39.2208,74.46,87,95,5.14,BR,1619129894
Ishigaki,24.3448,124.1572,73.4,100,75,13.8,JP,1619129894
Provideniya,64.3833,-173.3,39.2,52,0,13.42,RU,1619129894
Sungai Penuh,-2.0833,101.3833,64.24,95,100,1.23,ID,1619129895
Arecibo,18.4724,-66.7157,82.0,75,86,3.0,PR,1619129895
Kuvandyk,51.4781,57.3552,42.8,79,100,11.52,RU,1619129896
Zhigansk,66.7697,123.3711,21.27,95,100,10.87,RU,1619129897
Luanda,-8.8368,13.2343,80.6,89,75,3.44,AO,1619129647
Tavda,58.0425,65.2726,45.28,69,100,10.2,RU,1619129307
Río Gallegos,-51.6226,-69.2181,50.0,76,75,3.44,AR,1619129137
Kenai,60.5544,-151.2583,53.6,46,1,11.5,US,1619129331
Ndélé,8.4109,20.6473,82.81,43,97,4.32,CF,1619129898
Kosai,34.7105,137.5316,59.0,71,11,4.0,JP,1619129898
Isangel,-19.55,169.2667,82.4,78,75,8.57,VU,1619129349
Chernyshevskiy,63.0128,112.4714,22.8,90,100,12.17,RU,1619129451
Maceió,-9.6658,-35.7353,77.0,94,0,5.75,BR,1619129780
Gravdal,68.1214,13.5031,30.2,93,75,3.44,NO,1619129900
Jalu,29.0331,21.5482,75.43,18,100,14.58,LY,1619129512
Ailigandí,9.2333,-78.0167,80.89,80,54,12.97,PA,1619129900
Port Hardy,50.6996,-127.4199,51.8,71,20,5.75,CA,1619129400
Hokitika,-42.7167,170.9667,54.64,92,100,6.93,NZ,1619129336
Makakilo City,21.3469,-158.0858,84.2,51,75,13.8,US,1619129901
Dāmghān,36.1683,54.348,71.64,32,88,2.39,IR,1619129902
Borogontsy,62.6683,131.1683,14.38,89,32,5.53,RU,1619129902
Quzhou,28.9594,118.8686,66.24,92,100,3.94,CN,1619129903
Pimentel,-6.8367,-79.9342,69.8,73,0,24.16,PE,1619129903
Moundou,8.5667,16.0833,85.73,46,99,7.58,TD,1619129903
Novosysoyevka,44.235,133.3642,50.9,40,99,1.63,RU,1619129904
Corn Island,12.1694,-83.0418,80.62,73,10,17.09,NI,1619129904
Andenes,69.3143,16.1194,33.8,55,90,13.8,NO,1619129905
Ţaga,46.95,24.05,48.2,87,40,2.3,RO,1619129905
Askarovo,53.3372,58.5089,41.0,52,90,8.95,RU,1619129906
Hofn,64.2539,-15.2082,38.5,79,100,6.67,IS,1619129353
Oktyabr'skiy,54.4815,53.471,38.03,94,100,9.4,RU,1619129906
Mago,53.2514,140.1822,41.11,87,100,2.37,RU,1619129345
Luján,-34.5703,-59.105,73.0,77,99,8.08,AR,1619129907
West Bay,19.3667,-81.4167,84.99,65,20,10.36,KY,1619129907
Meulaboh,4.1363,96.1285,76.12,88,88,3.04,ID,1619129235
Bella Vista,36.4295,-94.2316,62.01,31,1,6.91,US,1619129757
Jumla,29.2747,82.1838,35.71,80,6,6.29,NP,1619129908
San Jerónimo,-11.9472,-75.2829,54.37,74,67,4.36,PE,1619129909
Japura,-0.3167,102.35,72.59,97,100,2.26,ID,1619129909
Muravlenko,63.7898,74.523,26.96,82,41,14.94,RU,1619129909
Alice Springs,-23.7,133.8833,48.2,71,0,4.61,AU,1619129401
Wanaka,-44.7,169.15,54.23,82,100,3.91,NZ,1619129910
Laiyang,36.9758,120.7136,53.62,97,100,2.39,CN,1619129910
Pueblo Nuevo,23.3833,-105.3833,73.76,11,89,8.41,MX,1619129911
Abonnema,4.7084,6.7931,75.2,94,75,5.1,NG,1619129450
Nelson Bay,-32.7167,152.15,55.99,54,0,17.27,AU,1619129912
Noumea,-22.2763,166.4572,80.01,69,0,4.61,NC,1619129912
Petropavlovka,50.6114,105.3196,24.62,83,100,3.78,RU,1619129912
Nioro,13.35,-15.75,81.45,41,14,10.49,GM,1619129913
Grand Forks,47.9417,-97.4337,66.2,14,1,14.97,US,1619129616
Healesville,-37.65,145.5167,50.0,99,81,2.51,AU,1619129914
Gondanglegi,-7.7479,112.0132,71.82,84,43,6.96,ID,1619129914
Kahului,20.8947,-156.47,84.2,48,40,21.85,US,1619129251
San Andrés,12.5847,-81.7006,84.2,70,20,13.8,CO,1619129901
Camacha,33.0833,-16.3333,68.0,83,20,1.14,PT,1619129362
Faya,18.3851,42.4509,64.4,48,0,2.28,SA,1619129442
Sistranda,63.7256,8.834,37.4,87,75,17.27,NO,1619129915
Jacksonville,30.3322,-81.6556,66.0,51,1,10.36,US,1619129735
Vestmannaeyjar,63.4427,-20.2734,45.07,80,100,25.34,IS,1619129916
Jay,44.5039,-70.2162,33.01,65,100,7.0,US,1619129917
Shitanjing,39.2342,106.3439,55.54,74,100,15.39,CN,1619129917
Dali,25.7,100.1833,54.59,71,4,5.26,CN,1619129917
Atar,20.5169,-13.0499,82.11,11,0,6.02,MR,1619129783
Arlit,18.7369,7.3853,88.54,6,50,10.76,NE,1619129918
Esmeraldas,-19.7625,-44.3139,75.2,43,0,4.61,BR,1619129919
Carupano,10.6678,-63.2585,80.44,71,16,14.7,VE,1619129919
Rome,43.2128,-75.4557,39.2,48,90,20.71,US,1619129283
Praia,14.9215,-23.5087,69.8,78,20,18.41,CV,1619129920
Cape Town,-33.9258,18.4232,57.0,100,90,12.66,ZA,1619129918
Florø,61.5996,5.0328,39.2,81,75,11.5,NO,1619129920
Alexandria,31.2156,29.9553,62.6,72,0,9.22,EG,1619129921
Mount Gambier,-37.8333,140.7667,50.0,93,90,4.61,AU,1619129486
‘Āhuimanu,21.4447,-157.8378,84.2,65,40,14.97,US,1619129921
Nimāparha,20.0667,86.0167,80.6,89,75,7.31,IN,1619129922
Bridlington,54.0831,-0.1919,45.0,48,71,2.3,GB,1619129922
Finnsnes,69.2296,17.9811,28.4,93,98,4.61,NO,1619129923
Blagoyevo,63.3667,47.9167,39.67,96,86,10.33,RU,1619129923
Assiniboia,49.6334,-105.9845,35.6,60,99,21.85,CA,1619129924
Soyo,-6.1349,12.3689,79.72,90,73,6.2,AO,1619129924
Denpasar,-8.65,115.2167,77.0,73,20,1.14,ID,1619129844
Bonthe,7.5264,-12.505,81.36,81,60,6.62,SL,1619129925
Bayangol,50.6977,103.4656,18.45,83,100,2.1,RU,1619129925
Cabedelo,-6.9811,-34.8339,78.8,100,0,6.91,BR,1619129824
Vidim,56.4088,103.1106,15.49,94,5,1.21,RU,1619129926
Deer Lake,49.1667,-57.4316,50.0,87,90,12.66,CA,1619129926
Yining,29.0361,114.5636,63.57,94,87,1.9,CN,1619129927
Mezen',65.8522,44.24,34.81,95,93,7.63,RU,1619129927
Afogados da Ingazeira,-7.7508,-37.6392,76.3,76,99,1.48,BR,1619129928
Banda Aceh,5.5577,95.3222,80.08,80,93,10.09,ID,1619129377
Bosaso,11.2842,49.1816,83.37,68,1,5.99,SO,1619129928
Idaho Falls,43.4666,-112.0341,62.01,16,1,12.66,US,1619129929
Lensk,60.7253,114.9278,27.86,87,100,14.81,RU,1619129929
Shiyan,32.6475,110.7781,59.95,87,100,7.38,CN,1619129930
Dingle,10.9995,122.6711,77.45,85,88,5.88,PH,1619129466
Soligalich,59.0778,42.2864,39.16,95,24,5.88,RU,1619129930
Corinth,37.9407,22.9573,57.0,56,83,1.01,GR,1619129931
Mubende,0.5606,31.39,61.09,96,99,1.74,UG,1619129931
Sittwe,20.15,92.9,78.58,85,2,8.3,MM,1619129932
Tilichiki,60.4667,166.1,24.76,81,66,3.78,RU,1619129932
Lieksa,63.3167,30.0167,32.56,97,90,5.35,FI,1619129933
Prince Rupert,54.3161,-130.3201,57.2,38,1,8.05,CA,1619129678
Batagay,67.6333,134.6333,10.74,90,100,2.33,RU,1619129933
Gombong,-7.6072,109.5142,73.36,84,8,3.09,ID,1619129671
Coquimbo,-29.9533,-71.3436,59.0,82,75,6.91,CL,1619129596
Plouzané,48.3833,-4.6167,53.6,76,0,11.5,FR,1619129934
Pisco,-13.7,-76.2167,70.0,73,0,23.02,PE,1619129358
Havøysund,70.9963,24.6622,32.0,80,40,8.05,NO,1619129935
Bitung,1.4451,125.1824,75.2,94,20,2.3,ID,1619129935
Portalegre,39.2938,-7.4312,60.01,75,72,3.71,PT,1619129936
Erenhot,43.6475,111.9767,53.15,64,2,9.71,CN,1619129936
Gēdo,9.0167,37.45,59.36,62,99,0.78,ET,1619129937
Mossamedes,-15.1961,12.1522,79.25,81,39,2.04,AO,1619129508
Severo-Yeniseyskiy,60.3725,93.0408,10.24,98,71,3.13,RU,1619129937
Atocha,-20.9333,-66.2333,51.71,13,0,12.97,BO,1619129938
Sosnovo-Ozerskoye,52.5249,111.5418,26.51,41,100,7.83,RU,1619129938
Itarema,-2.9248,-39.9167,78.39,81,17,7.34,BR,1619129939
Arrondissement de Libourne,44.9167,-0.25,57.99,71,0,2.3,FR,1619129939
Esso,55.9333,158.7,34.21,85,61,2.04,RU,1619129939
Shingū,33.7333,135.9833,59.16,77,86,8.97,JP,1619129119
Jacmel,18.2342,-72.5347,84.2,70,40,10.36,HT,1619129940
Praia da Vitória,38.7333,-27.0667,57.2,77,75,29.64,PT,1619129941
Kuzhener,56.8111,48.9128,38.52,95,20,4.74,RU,1619129941
Portland,45.5234,-122.6762,66.0,48,75,4.18,US,1619129359
Vardø,70.3705,31.1107,33.8,75,75,4.61,NO,1619129942
Emerald,-23.5333,148.1667,64.4,72,90,10.36,AU,1619129943
Vavuniya,8.7514,80.4971,74.21,97,36,3.13,LK,1619129943
Srednekolymsk,67.45,153.6833,12.36,86,95,3.06,RU,1619129944
Rønne,55.1009,14.7066,42.8,65,11,10.36,DK,1619129944
Ben Gardane,33.1378,11.2197,67.87,66,100,16.22,TN,1619129945
Şırnak,37.5228,42.4594,53.44,33,0,2.95,TR,1619129945
Koungheul,13.9833,-14.8,92.32,16,23,11.97,SN,1619129946
Ahipara,-35.1667,173.1667,65.97,76,98,7.65,NZ,1619129420
Novoselytsya,48.2193,26.2653,48.0,81,60,3.0,UA,1619129946
Obo,5.3998,26.4869,70.38,90,99,3.02,CF,1619129947
Stayner,44.4183,-80.096,41.0,48,68,12.66,CA,1619129947
Richards Bay,-28.783,32.0377,67.68,89,88,3.67,ZA,1619129948
San Juan,-31.5375,-68.5364,68.16,40,4,10.18,AR,1619129948
Yangi Marg`ilon,40.4272,71.7189,51.8,70,0,3.38,UZ,1619129417
Whitehorse,60.7161,-135.0538,46.0,24,1,5.75,CA,1619129949
Henties Bay,-22.116,14.2845,64.0,86,84,3.0,NA,1619129949
Guanagazapa,14.2253,-90.6433,89.6,66,20,16.11,GT,1619129950
Dongsheng,39.8161,109.9776,50.13,73,97,13.62,CN,1619129950
Chumphon,10.3333,98.8333,74.05,90,100,3.38,TH,1619129951
Līvāni,56.3543,26.1758,36.37,81,52,9.91,LV,1619129951
Lompoc,34.6391,-120.4579,55.4,71,44,11.5,US,1619129629
Liuzhou,24.3126,109.3892,73.51,92,5,3.22,CN,1619129952
Gerāsh,27.6652,54.1371,77.0,22,0,2.71,IR,1619129952
Solnechnyy,50.7214,136.6319,55.04,51,100,5.03,RU,1619129952
Muros,42.7762,-9.0603,55.0,86,82,6.4,ES,1619129472
Narón,43.5167,-8.1528,55.99,100,0,4.61,ES,1619129953
Chibombo,-14.6569,28.0706,58.69,90,11,4.72,ZM,1619129954
Road Town,18.4167,-64.6167,80.6,74,20,9.22,VG,1619129954
Alpena,45.0617,-83.4327,48.2,25,1,12.66,US,1619129954
Helong,42.5397,128.9972,50.34,75,100,1.83,CN,1619129955
Trebinje,42.7119,18.3442,50.0,93,75,10.36,BA,1619129883
Katsuura,35.1333,140.3,55.99,55,7,5.01,JP,1619129469
Merauke,-8.4667,140.3333,77.56,93,59,8.23,ID,1619129956
Sokyryany,48.4475,27.4168,45.66,89,73,11.65,UA,1619129956
Nabire,-3.3667,135.4833,77.09,88,100,2.46,ID,1619129957
Dukat,62.55,155.55,18.23,97,100,5.17,RU,1619129359
Bara,10.3744,10.7288,88.63,40,42,8.48,NG,1619129957
Sobolevo,54.4299,31.8996,45.25,93,83,5.77,RU,1619129915
Barcelos,41.5388,-8.6151,57.99,88,0,3.44,PT,1619129958
Gubkinskiy,64.434,76.5026,27.18,82,87,16.31,RU,1619129959
San Isidro,-12.1167,-77.05,69.01,88,90,12.66,PE,1619129959
Tura,25.5198,90.2201,69.44,66,57,1.41,IN,1619129453
San Mateo Ixtatán,15.8319,-91.4781,77.0,31,20,13.8,GT,1619129960
Sutysky,49.0425,28.4173,50.0,82,83,7.65,UA,1619129960
São Lourenço do Sul,-31.3653,-51.9783,71.6,73,0,23.02,BR,1619129960
Frontera,26.9333,-101.45,86.0,53,75,9.33,MX,1619129894
Jiwani,25.05,61.7417,81.81,76,6,9.28,PK,1619129961
Argelia,2.2556,-77.2488,71.2,93,79,1.01,CO,1619129962
Peterhead,57.5058,-1.7981,44.01,87,49,5.75,GB,1619129962
Perth,-31.9333,115.8333,64.99,55,0,10.36,AU,1619129902
Lastoursville,-0.8143,12.7287,74.79,93,93,2.42,GA,1619129963
Mbandaka,0.0487,18.2603,75.29,79,14,3.6,CD,1619129963
Moose Factory,51.2585,-80.6094,37.4,60,90,9.22,CA,1619129429
Pacific Grove,36.6177,-121.9166,57.99,67,90,12.66,US,1619129964
Ylivieska,64.0833,24.55,35.01,91,100,1.99,FI,1619129964
Cuxhaven,53.8718,8.6909,43.0,81,20,16.11,DE,1619129965
Ayacucho,-13.1583,-74.2239,53.19,87,75,6.62,PE,1619129965
Miramar,25.9873,-80.2323,82.99,57,40,9.22,US,1619129683
Ponta Delgada,37.7333,-25.6667,59.0,72,40,33.38,PT,1619129966
Naze,28.3667,129.4833,69.8,83,75,17.27,JP,1619129380
Lorengau,-2.0226,147.2712,82.27,78,100,3.98,PG,1619129392
Llanes,43.4198,-4.7549,57.0,82,31,4.16,ES,1619129966
Reconquista,-29.15,-59.65,69.48,67,100,5.73,AR,1619129967
Shahrud,36.4182,54.9763,70.36,36,68,4.0,IR,1619129968
Priargunsk,50.3691,119.1012,34.11,47,48,17.72,RU,1619129968
Encruzilhada do Sul,-30.5439,-52.5219,63.93,64,18,9.24,BR,1619129968
Yaqui,27.3667,-110.1667,78.8,22,90,12.66,MX,1619129969
Ust-Kuyga,70.0167,135.6,2.05,96,97,2.71,RU,1619129452
Mīrābād,30.4362,61.8383,73.63,12,0,20.54,AF,1619129969
Voznesen'ye,61.0106,35.4781,35.51,93,26,6.33,RU,1619129970
Matagami,49.7502,-77.6328,37.4,44,1,13.8,CA,1619129970
Tautira,-17.7333,-149.15,86.0,66,20,9.22,PF,1619129971
Aykhal,66.0,111.5,23.09,94,99,25.77,RU,1619129858
Turka,49.1541,23.0297,35.01,85,100,1.63,UA,1619129971
Safi,32.2994,-9.2372,62.92,85,81,11.45,MA,1619129972
Rawlins,41.7911,-107.2387,54.0,15,1,17.27,US,1619129778
Anadyr,64.75,177.4833,10.4,85,0,11.18,RU,1619129926
Inuvik,68.3499,-133.7218,24.8,58,36,4.61,CA,1619129973
Mehamn,71.0357,27.8492,35.6,64,40,8.05,NO,1619129486
Kattivākkam,13.2167,80.3167,82.4,83,40,4.61,IN,1619129973
Necochea,-38.5473,-58.7368,61.0,87,100,1.01,AR,1619129974
Nyurba,63.2842,118.3319,26.2,93,100,13.0,RU,1619129966
Kanel,15.4916,-13.1763,95.0,21,0,2.3,SN,1619129974
Kyzyl-Suu,42.3414,78.0056,26.64,46,11,9.31,KG,1619129975
Zhangaözen,43.3,52.8,64.89,14,95,22.26,KZ,1619129976
Mpongwe,-13.5091,28.155,61.66,85,23,5.88,ZM,1619129976
Puerto Carreño,6.189,-67.4859,91.44,43,69,9.84,CO,1619129976
Kamenka,51.3223,42.7678,43.0,87,66,4.63,RU,1619129977
Atasū,48.6814,71.6433,30.88,47,26,11.36,KZ,1619129457
Hinton,53.4001,-117.5857,37.4,35,100,11.5,CA,1619129977
Srīvardhan,18.0333,73.0167,80.1,73,100,8.88,IN,1619129978
Andra,62.5147,65.8878,37.53,88,98,9.35,RU,1619129978
Gambēla,8.25,34.5833,73.96,83,100,0.89,ET,1619129440
Neepawa,50.2289,-99.4664,66.99,14,20,16.11,CA,1619129703
Cervo,43.6702,-7.4101,54.0,87,100,7.05,ES,1619129979
Lagoa,39.05,-27.9833,56.46,78,47,42.08,PT,1619129976
Ambilobe,-13.2,49.05,72.99,88,94,3.13,MG,1619129384
Dulovo,43.8167,27.15,57.0,39,100,1.99,BG,1619129981
Ikwiriri,-7.9562,38.9716,71.69,96,71,2.48,TZ,1619129981
Kota Kinabalu,5.9749,116.0724,77.0,78,20,5.75,MY,1619129981
Broome,42.2506,-75.833,37.0,69,90,12.66,US,1619129412
Mildura,-34.2,142.15,57.2,67,90,3.44,AU,1619129982
Amstetten,48.1229,14.8721,41.0,82,43,1.86,AT,1619129983
Severnoye,56.3491,78.3619,27.7,86,9,2.17,RU,1619129983
Bismil,37.8486,40.6658,51.8,76,0,6.91,TR,1619129777
Manokwari,-0.8667,134.0833,78.76,77,100,2.98,ID,1619129845
Bon Air,37.5249,-77.5578,55.0,36,98,10.89,US,1619129984
Lodja,-3.4833,23.4333,71.82,91,38,0.94,CD,1619129984
Youhao,47.8667,128.8333,51.67,91,100,1.32,CN,1619129985
Westport,41.1415,-73.3579,45.0,46,97,1.99,US,1619129872
Gornyak,50.9942,81.4661,30.29,80,25,14.92,RU,1619129986
Kieta,-6.2167,155.6333,78.12,87,99,5.88,PG,1619129942
Budogoshch',59.2816,32.4707,45.82,74,76,8.52,RU,1619129986
Bud,39.447,-86.1758,54.0,40,68,11.43,US,1619129987
Isabela,6.7085,121.9711,73.4,94,40,1.14,PH,1619129987
Yershov,51.3513,48.2766,44.17,92,100,6.87,RU,1619129988
Tahe,52.3333,124.7333,28.99,44,76,9.33,CN,1619129988
Romulus,42.2223,-83.3966,51.01,37,75,9.22,US,1619129810
Bandarbeyla,9.4942,50.8122,82.42,74,43,5.1,SO,1619129989
Baillif,16.0202,-61.7463,80.6,69,20,11.5,GP,1619129989
Pangnirtung,66.1451,-65.7125,21.2,86,75,9.22,CA,1619129456
Chara,56.9064,118.2631,9.37,74,0,2.15,RU,1619129990
Tabou,4.423,-7.3528,80.35,85,79,6.82,CI,1619129875
Nuuk,64.1835,-51.7216,39.2,56,0,1.14,GL,1619129969
Coahuayana Viejo,18.7333,-103.6833,86.0,25,40,11.5,MX,1619129991
Laguna,38.421,-121.4238,72.0,43,1,12.66,US,1619129797
Seoul,37.5683,126.9778,64.4,59,90,12.66,KR,1619129676
Shakhovskaya,56.0283,35.5097,43.11,93,84,10.0,RU,1619129992
Trairi,-3.2778,-39.2689,77.79,83,17,5.23,BR,1619129992
Te Anau,-45.4167,167.7167,51.28,82,91,5.5,NZ,1619129992
Buraidah,26.326,43.975,82.4,20,0,6.91,SA,1619129963
Mbaïki,3.8678,17.9892,69.66,93,100,1.83,CF,1619129993
Salihorsk,52.7876,27.5415,41.2,75,100,7.61,BY,1619129994
Revda,56.801,59.9303,46.4,57,0,11.18,RU,1619129994
Requena,39.4883,-1.1004,55.99,84,100,7.02,ES,1619129995
Mahibadhoo,3.7833,72.9667,82.08,76,96,12.41,MV,1619129995
Teahupoo,-17.8333,-149.2667,86.0,66,20,9.22,PF,1619129996
Sabha,27.0377,14.4283,81.99,17,100,16.31,LY,1619129996
Barkhan,29.8977,69.5256,70.9,27,0,3.62,PK,1619129997
Acapulco de Juárez,16.8634,-99.8901,86.0,58,40,13.8,MX,1619129253
Shamary,57.3434,58.2199,35.62,98,100,5.91,RU,1619129997
São Filipe,14.8961,-24.4956,73.22,72,56,12.44,CV,1619129998
Ambunti,-4.2365,142.8448,76.62,95,100,0.67,PG,1619129998
Taksimo,56.3444,114.8794,18.3,64,0,3.53,RU,1619129999
Ambon City,-3.6954,128.1814,77.0,94,40,5.75,ID,1619129448
Nombre de Jesús,15.35,-86.6833,89.6,66,40,16.11,HN,1619129999
Cururupu,-1.8283,-44.8683,75.22,92,100,2.91,BR,1619130000
Garoowe,8.4054,48.4845,77.18,65,91,7.25,SO,1619130000
Guarapari,-20.6667,-40.4975,77.0,73,75,9.22,BR,1619130001
Sinnamary,5.3833,-52.95,77.74,88,100,13.2,GF,1619130001
Mabaruma,8.2,-59.7833,78.28,79,82,5.82,GY,1619130001
Salinópolis,-0.6136,-47.3561,77.02,87,100,6.73,BR,1619130002
Cedar City,37.6775,-113.0619,62.6,12,20,13.8,US,1619129858
Sandwick,60.0,-1.25,42.8,70,90,9.22,GB,1619130003
Killybegs,54.6333,-8.45,50.0,74,7,5.99,IE,1619130003
Nemuro,43.3236,145.575,35.56,87,98,15.3,JP,1619130004
Pasni,25.2631,63.471,81.7,68,0,11.25,PK,1619130004
Kamina,-8.7386,24.9906,64.58,95,98,2.84,CD,1619130005
Murgab,37.4966,61.9714,55.4,50,5,6.91,TM,1619130005
Vao,-22.6667,167.4833,74.08,74,22,6.06,NC,1619130006
Gupitan,7.7758,125.6406,73.29,92,39,2.66,PH,1619130006
Trofors,65.5333,13.4063,32.0,74,20,3.15,NO,1619130007
